<?xml version="1.0" encoding="UTF-8" standalone="no" ?>
<gpx xmlns="http://www.topografix.com/GPX/1/1" version="1.1" creator="Wikipedia" 
    xmlns:xsi="http://www.w3.org/2001/XMLSchema-instance" 
    xsi:schemaLocation="http://www.topografix.com/GPX/1/1 http://www.topografix.com/GPX/1/1/gpx.xsd"> 
 <!-- Kommentare sehen so aus -->
 <metadata>
  <name>Polawalk #1</name>
  <desc>Polawalk #1 © 2013 Polawalk.com</desc>
  <author>
   <name>Gilbert Lechner</name>
  </author>
 </metadata>
 <wpt lat="48.19828" lon="16.37180">
  <name>Karlskirche (St. Charles' Church)</name>
  <sym>Kirche</sym>
 </wpt>
 <wpt lat="48.20028" lon="16.37026">
  <name>Otto Wagner-Pavillon</name>
  <sym>Museum</sym>
 </wpt>
 <wpt lat="48.20327" lon="16.36921">
  <name>Staatsoper (State Opera)</name>
  <sym>Theater</sym>
 </wpt>
 <wpt lat="48.20464" lon="16.36826">
  <name>Albertina</name>
  <sym>Bibliothek</sym>
 </wpt>
 <wpt lat="48.20439" lon="16.36571">
  <name>Burggarten</name>
  <sym>Garten</sym>
 </wpt>
 <wpt lat="48.20727" lon="16.36506">
  <name>Hofburg (Imperial Palace)</name>
  <sym>Gebäude</sym>
 </wpt>
 <wpt lat="48.20806" lon="16.36173">
  <name>Volksgarten</name>
  <sym>Garten</sym>
 </wpt>
 <wpt lat="48.20809" lon="16.35845">
  <name>Parlament (Parliament)</name>
  <sym>Gebäude</sym>
 </wpt>
 <wpt lat="48.21074" lon="16.35745">
  <name>Rathaus (Cityhall)</name>
  <sym>Gebäude</sym>
 </wpt>
 <wpt lat="48.21235" lon="16.36281">
  <name>Mölker Steig</name>
  <sym>Straße</sym>
 </wpt>
 <wpt lat="48.21543" lon="16.35914">
  <name>Votivkirche (Votiv Church)</name>
  <sym>Kirche</sym>
 </wpt>

 <rte>
  <name>Walk #1</name>
  <desc>Polawalk 1</desc>
  <rtept lat="48.19828" lon="16.37180"></rtept>
  <rtept lat="48.20028" lon="16.37026"></rtept>
  <rtept lat="48.20327" lon="16.36921"></rtept>
  <rtept lat="48.20464" lon="16.36826"></rtept>
  <rtept lat="48.20439" lon="16.36571"></rtept>
  <rtept lat="48.20727" lon="16.36506"></rtept>
  <rtept lat="48.20806" lon="16.36173"></rtept>
  <rtept lat="48.20809" lon="16.35845"></rtept>
  <rtept lat="48.21074" lon="16.35745"></rtept>
  <rtept lat="48.21235" lon="16.36281"></rtept>
  <rtept lat="48.21543" lon="16.35914"></rtept>
 </rte>
</gpx>
